$GNGGA,021524.700,3802.77617303,N,11426.15657531,E,1,8,1.053,0.00,M,0.000,M,,,1.276*76
$GNGSA,A,3,5,13,15,18,20,23,29,30,,,,,1.655,1.053,1.276,0.823*14
$GNGSA,A,3,,,,,,,,,,,,,1.655,1.053,1.276,0.823*25
$GPGSV,3,1,11,2,1,148,44,5,26,89,33,10,4,287,,13,47,45,27*78
$GPGSV,3,2,11,15,80,347,30,18,59,302,30,20,32,300,25,23,30,297,35*7F
$GPGSV,3,3,11,24,34,166,,29,20,219,25,30,2,33,28*46
$BDGSV,3,1,10,161,38,141,,162,36,224,,163,47,186,,164,25,120,*69
$BDGSV,3,2,10,165,18,247,,166,19,164,,167,16,187,,168,64,12,*5F
$BDGSV,3,3,10,170,29,209,,173,59,313,*67
$GNRMC,021524.700,A,3802.77617303,N,11426.15657531,E,0.000,0.000,261120,,E,A*3A
$GNGGA,021524.800,3802.77617274,N,11426.15657530,E,1,8,1.053,39.866,M,0.000,M,,,1.276*79
$GNGSA,A,3,5,13,15,18,20,23,29,30,,,,,1.655,1.053,1.276,0.823*14
$GNGSA,A,3,,,,,,,,,,,,,1.655,1.053,1.276,0.823*25
$GPGSV,3,1,11,2,1,148,65,5,26,89,33,10,4,287,,13,47,45,27*78
$GPGSV,3,2,11,15,80,347,30,18,59,302,30,20,32,300,25,23,30,297,35*7F
$GPGSV,3,3,11,24,34,166,,29,20,219,25,30,2,33,28*46
$BDGSV,3,1,10,161,38,141,,162,36,224,,163,47,186,,164,25,120,*69
$BDGSV,3,2,10,165,18,247,,166,19,164,,167,16,187,,168,64,12,*5F
$BDGSV,3,3,10,170,29,209,,173,59,313,*67
$GNRMC,021524.800,A,3802.77617274,N,11426.15657530,E,0.000,0.000,261120,,E,A*35
$GNGGA,021524.900,3802.77617248,N,11426.15657530,E,1,8,1.053,39.867,M,0.000,M,,,1.276*76
$GNGSA,A,3,5,13,15,18,20,23,29,30,,,,,1.655,1.053,1.276,0.823*14
$GNGSA,A,3,,,,,,,,,,,,,1.655,1.053,1.276,0.823*25
$GPGSV,3,1,11,2,1,148,43,5,26,89,33,10,4,287,,13,47,45,27*78
$GPGSV,3,2,11,15,80,347,30,18,59,302,30,20,32,300,25,23,30,297,35*7F
$GPGSV,3,3,11,24,34,166,,29,20,219,25,30,2,33,28*46
$BDGSV,3,1,10,161,38,141,,162,36,224,,163,47,186,,164,25,120,*69
$BDGSV,3,2,10,165,18,247,,166,19,164,,167,16,187,,168,64,12,*5F
$BDGSV,3,3,10,170,29,209,,173,59,313,*67
$GNRMC,021524.900,A,3802.77617248,N,11426.15657530,E,0.000,0.000,261120,,E,A*3B
$GNGGA,021525.000,3802.77617228,N,11426.15657530,E,1,8,1.053,39.867,M,0.000,M,,,1.276*78
$GNGSA,A,3,5,13,15,18,20,23,29,30,,,,,1.655,1.053,1.276,0.823*14
$GNGSA,A,3,,,,,,,,,,,,,1.655,1.053,1.276,0.823*25
$GPGSV,3,1,11,2,1,148,44,5,26,89,33,10,4,287,,13,47,45,27*78
$GPGSV,3,2,11,15,80,347,30,18,59,302,30,20,32,300,25,23,30,297,35*7F
$GPGSV,3,3,11,24,34,166,,29,20,219,25,30,2,33,28*46
$BDGSV,3,1,10,161,38,141,,162,36,224,,163,47,186,,164,25,120,*69
$BDGSV,3,2,10,165,18,247,,166,19,164,,167,16,187,,168,64,12,*5F
$BDGSV,3,3,10,170,29,209,,173,59,313,*67
$GNRMC,021525.000,A,3802.77617228,N,11426.15657530,E,0.000,0.000,261120,,E,A*35
$GNGGA,021525.100,3802.77617174,N,11426.15657529,E,1,8,1.053,39.867,M,0.000,M,,,1.276*7B
$GNGSA,A,3,5,13,15,18,20,23,29,30,,,,,1.654,1.053,1.276,0.823*15
$GNGSA,A,3,,,,,,,,,,,,,1.654,1.053,1.276,0.823*24
$GPGSV,3,1,11,2,1,148,,5,26,89,33,10,4,287,,13,47,45,27*78
$GPGSV,3,2,11,15,80,347,30,18,59,302,30,20,32,300,24,23,30,297,35*7E
$GPGSV,3,3,11,24,34,166,,29,20,219,25,30,2,33,28*46
$BDGSV,3,1,10,161,38,141,,162,36,224,,163,47,186,,164,25,120,*69
$BDGSV,3,2,10,165,18,247,,166,19,164,,167,16,187,,168,64,12,*5F
$BDGSV,3,3,10,170,29,209,,173,59,313,*67
$GNRMC,021525.100,A,3802.77617174,N,11426.15657529,E,0.000,0.000,261120,,E,A*36
$GNGGA,021525.200,3802.77617151,N,11426.15657528,E,1,8,1.053,39.867,M,0.000,M,,,1.275*7D
$GNGSA,A,3,5,13,15,18,20,23,29,30,,,,,1.654,1.053,1.275,0.823*16
$GNGSA,A,3,,,,,,,,,,,,,1.654,1.053,1.275,0.823*27
$GPGSV,3,1,11,2,1,148,,5,26,89,33,10,4,287,,13,47,45,27*78
$GPGSV,3,2,11,15,80,347,30,18,59,302,30,20,32,300,24,23,30,297,35*7E
$GPGSV,3,3,11,24,34,166,,29,20,219,25,30,2,33,28*46
$BDGSV,3,1,10,161,38,141,,162,36,224,,163,47,186,,164,25,120,*69
$BDGSV,3,2,10,165,18,247,,166,19,164,,167,16,187,,168,64,12,*5F
$BDGSV,3,3,10,170,29,209,,173,59,313,*67
$GNRMC,021525.200,A,3802.77617151,N,11426.15657528,E,0.000,0.000,261120,,E,A*33
$GNGGA,021525.300,3802.77617122,N,11426.15657527,E,1,8,1.053,39.868,M,0.000,M,,,1.275*78
$GNGSA,A,3,5,13,15,18,20,23,29,30,,,,,1.654,1.053,1.275,0.823*16
$GNGSA,A,3,,,,,,,,,,,,,1.654,1.053,1.275,0.823*27
$GPGSV,3,1,11,2,1,148,,5,26,89,33,10,4,287,,13,47,45,27*78
$GPGSV,3,2,11,15,80,347,30,18,59,302,30,20,32,300,24,23,30,297,35*7E
$GPGSV,3,3,11,24,34,166,,29,20,219,25,30,2,33,28*46
$BDGSV,3,1,10,161,38,141,,162,36,224,,163,47,186,,164,25,120,*69
$BDGSV,3,2,10,165,18,247,,166,19,164,,167,16,187,,168,64,12,*5F
$BDGSV,3,3,10,170,29,209,,173,59,313,*67
$GNRMC,021525.300,A,3802.77617122,N,11426.15657527,E,0.000,0.000,261120,,E,A*39
$GNGGA,021525.400,3802.77617102,N,11426.15657526,E,1,8,1.053,39.868,M,0.000,M,,,1.275*7C
$GNGSA,A,3,5,13,15,18,20,23,29,30,,,,,1.654,1.053,1.275,0.823*16
$GNGSA,A,3,,,,,,,,,,,,,1.654,1.053,1.275,0.823*27
$GPGSV,3,1,11,2,1,148,,5,26,89,33,10,4,287,,13,47,45,27*78
$GPGSV,3,2,11,15,80,347,30,18,59,302,30,20,32,300,24,23,30,297,35*7E
$GPGSV,3,3,11,24,34,166,,29,20,219,25,30,2,33,28*46
$BDGSV,3,1,10,161,38,141,,162,36,224,,163,47,186,,164,25,120,*69
$BDGSV,3,2,10,165,18,247,,166,19,164,,167,16,187,,168,64,12,*5F
$BDGSV,3,3,10,170,29,209,,173,59,313,*67
$GNRMC,021525.400,A,3802.77617102,N,11426.15657526,E,0.000,0.000,261120,,E,A*3D
$GNGGA,021525.500,3802.77617068,N,11426.15657524,E,1,8,1.053,39.868,M,0.000,M,,,1.275*72
$GNGSA,A,3,5,13,15,18,20,23,29,30,,,,,1.654,1.053,1.275,0.823*16
$GNGSA,A,3,,,,,,,,,,,,,1.654,1.053,1.275,0.823*27
$GPGSV,3,1,11,2,1,148,,5,26,89,33,10,4,287,,13,47,45,27*78
$GPGSV,3,2,11,15,80,347,30,18,59,302,30,20,32,300,24,23,30,297,35*7E
$GPGSV,3,3,11,24,34,166,,29,20,219,25,30,2,33,28*46
$BDGSV,3,1,10,161,38,141,,162,36,224,,163,47,186,,164,25,120,*69
$BDGSV,3,2,10,165,18,247,,166,19,164,,167,16,187,,168,64,12,*5F
$BDGSV,3,3,10,170,29,209,,173,59,313,*67
$GNRMC,021525.500,A,3802.77617068,N,11426.15657524,E,0.000,0.000,261120,,E,A*33
$GNGGA,021525.600,3802.77617041,N,11426.15657523,E,1,8,1.053,39.868,M,0.000,M,,,1.275*7D
$GNGSA,A,3,5,13,15,18,20,23,29,30,,,,,1.654,1.053,1.275,0.823*16
$GNGSA,A,3,,,,,,,,,,,,,1.654,1.053,1.275,0.823*27
$GPGSV,3,1,11,2,1,148,,5,26,89,33,10,4,287,,13,47,45,27*78
$GPGSV,3,2,11,15,80,347,30,18,59,302,30,20,32,300,23,23,30,297,35*79
$GPGSV,3,3,11,24,34,166,,29,20,219,25,30,2,33,28*46
$BDGSV,3,1,10,161,38,141,,162,36,224,,163,47,186,,164,25,120,*69
$BDGSV,3,2,10,165,18,247,,166,19,164,,167,16,187,,168,64,12,*5F
$BDGSV,3,3,10,170,29,209,,173,59,313,*67
$GNRMC,021525.600,A,3802.77617041,N,11426.15657523,E,0.000,0.000,261120,,E,A*3C
$GNGGA,021525.700,3802.77617020,N,11426.15657522,E,1,8,1.053,39.868,M,0.000,M,,,1.275*7A
$GNGSA,A,3,5,13,15,18,20,23,29,30,,,,,1.654,1.053,1.275,0.823*16
$GNGSA,A,3,,,,,,,,,,,,,1.654,1.053,1.275,0.823*27
$GPGSV,3,1,11,2,1,148,,5,26,89,33,10,4,287,,13,47,45,27*78
$GPGSV,3,2,11,15,80,347,30,18,59,302,30,20,32,300,23,23,30,297,35*79
$GPGSV,3,3,11,24,34,166,,29,20,219,25,30,2,33,28*46
$BDGSV,3,1,10,161,38,141,,162,36,224,,163,47,186,,164,25,120,*69
$BDGSV,3,2,10,165,18,247,,166,19,164,,167,16,187,,168,64,12,*5F
$BDGSV,3,3,10,170,29,209,,173,59,313,*67
$GNRMC,021525.700,A,3802.77617020,N,11426.15657522,E,0.000,0.000,261120,,E,A*3B
$GNGGA,021525.800,3802.77616980,N,11426.15657518,E,1,8,1.053,39.869,M,0.000,M,,,1.275*7F
$GNGSA,A,3,5,13,15,18,20,23,29,30,,,,,1.654,1.053,1.275,0.823*16
$GNGSA,A,3,,,,,,,,,,,,,1.654,1.053,1.275,0.823*27
$GPGSV,3,1,11,2,1,148,,5,26,89,33,10,4,287,,13,47,45,27*78
$GPGSV,3,2,11,15,80,347,30,18,59,302,31,20,32,300,23,23,30,297,35*78
$GPGSV,3,3,11,24,34,166,,29,20,219,25,30,2,33,28*46
$BDGSV,3,1,10,161,38,141,,162,36,224,,163,47,186,,164,25,120,*69
$BDGSV,3,2,10,165,18,247,,166,19,164,,167,16,187,,168,64,12,*5F
$BDGSV,3,3,10,170,29,209,,173,59,313,*67
$GNRMC,021525.800,A,3802.77616980,N,11426.15657518,E,0.000,0.000,261120,,E,A*3F
$GNGGA,021525.900,3802.77616959,N,11426.15657517,E,1,8,1.053,39.869,M,0.000,M,,,1.275*75
$GNGSA,A,3,5,13,15,18,20,23,29,30,,,,,1.654,1.053,1.275,0.823*16
$GNGSA,A,3,,,,,,,,,,,,,1.654,1.053,1.275,0.823*27
$GPGSV,3,1,11,2,1,148,,5,26,89,33,10,4,287,,13,47,45,27*78
$GPGSV,3,2,11,15,80,347,30,18,59,302,31,20,32,300,23,23,30,297,35*78
$GPGSV,3,3,11,24,34,166,,29,20,219,25,30,2,33,28*46
$BDGSV,3,1,10,161,38,141,,162,36,224,,163,47,186,,164,25,120,*69
$BDGSV,3,2,10,165,18,247,,166,19,164,,167,16,187,,168,64,12,*5F
$BDGSV,3,3,10,170,29,209,,173,59,313,*67
$GNRMC,021525.900,A,3802.77616959,N,11426.15657517,E,0.000,0.000,261120,,E,A*35
$GNGGA,021526.000,3802.77616931,N,11426.15657515,E,1,8,1.053,39.869,M,0.000,M,,,1.275*73
$GNGSA,A,3,5,13,15,18,20,23,29,30,,,,,1.654,1.053,1.275,0.823*16
$GNGSA,A,3,,,,,,,,,,,,,1.654,1.053,1.275,0.823*27
$GPGSV,3,1,11,2,1,148,,5,26,89,33,10,4,287,,13,47,45,28*77
$GPGSV,3,2,11,15,80,347,30,18,59,302,31,20,32,300,23,23,30,297,35*78
$GPGSV,3,3,11,24,34,166,,29,20,219,25,30,2,33,28*46
$BDGSV,3,1,10,161,38,141,,162,36,224,,163,47,186,,164,25,120,*69
$BDGSV,3,2,10,165,18,247,,166,19,164,,167,16,187,,168,64,12,*5F
$BDGSV,3,3,10,170,29,209,,173,59,313,*67
$GNRMC,021526.000,A,3802.77616931,N,11426.15657515,E,0.000,0.000,261120,,E,A*33
$GNGGA,021526.100,3802.77616902,N,11426.15657513,E,1,8,1.053,39.869,M,0.000,M,,,1.275*74
$GNGSA,A,3,5,13,15,18,20,23,29,30,,,,,1.654,1.053,1.275,0.823*16
$GNGSA,A,3,,,,,,,,,,,,,1.654,1.053,1.275,0.823*27
$GPGSV,3,1,11,2,1,148,,5,26,89,33,10,4,287,,13,47,45,28*77
$GPGSV,3,2,11,15,80,347,30,18,59,302,31,20,32,300,22,23,30,297,35*79
$GPGSV,3,3,11,24,34,166,,29,20,219,25,30,2,33,28*46
$BDGSV,3,1,10,161,38,141,,162,36,224,,163,47,186,,164,25,120,*69
$BDGSV,3,2,10,165,18,247,,166,19,164,,167,16,187,,168,64,12,*5F
$BDGSV,3,3,10,170,29,209,,173,59,313,*67
$GNRMC,021526.100,A,3802.77616902,N,11426.15657513,E,0.000,0.000,261120,,E,A*34
$GNGGA,021526.200,3802.77616871,N,11426.15657511,E,1,8,1.053,39.870,M,0.000,M,,,1.275*78
$GNGSA,A,3,5,13,15,18,20,23,29,30,,,,,1.654,1.053,1.275,0.823*16
$GNGSA,A,3,,,,,,,,,,,,,1.654,1.053,1.275,0.823*27
$GPGSV,3,1,11,2,1,148,,5,26,89,33,10,4,287,,13,47,45,28*77
$GPGSV,3,2,11,15,80,347,30,18,59,302,31,20,32,300,22,23,30,297,35*79
$GPGSV,3,3,11,24,34,166,,29,20,219,25,30,2,33,28*46
$BDGSV,3,1,10,161,38,141,,162,36,224,,163,47,186,,164,25,120,*69
$BDGSV,3,2,10,165,18,247,,166,19,164,,167,16,187,,168,64,12,*5F
$BDGSV,3,3,10,170,29,209,,173,59,313,*67
$GNRMC,021526.200,A,3802.77616871,N,11426.15657511,E,0.000,0.000,261120,,E,A*30
$GNGGA,021526.300,3802.77616848,N,11426.15657509,E,1,8,1.053,39.870,M,0.000,M,,,1.275*7A
$GNGSA,A,3,5,13,15,18,20,23,29,30,,,,,1.654,1.053,1.275,0.823*16
$GNGSA,A,3,,,,,,,,,,,,,1.654,1.053,1.275,0.823*27
$GPGSV,3,1,11,2,1,148,,5,26,89,33,10,4,287,,13,47,45,28*77
$GPGSV,3,2,11,15,80,347,30,18,59,302,31,20,32,300,22,23,30,297,35*79
$GPGSV,3,3,11,24,34,166,,29,20,219,25,30,2,33,28*46
$BDGSV,3,1,10,161,38,141,,162,36,224,,163,47,186,,164,25,120,*69
$BDGSV,3,2,10,165,18,247,,166,19,164,,167,16,187,,168,64,12,*5F
$BDGSV,3,3,10,170,29,209,,173,59,313,*67
$GNRMC,021526.300,A,3802.77616848,N,11426.15657509,E,0.000,0.000,261120,,E,A*32
$GNGGA,021526.400,3802.77616821,N,11426.15657506,E,1,8,1.053,39.870,M,0.000,M,,,1.275*7D
$GNGSA,A,3,5,13,15,18,20,23,29,30,,,,,1.654,1.053,1.275,0.823*16
$GNGSA,A,3,,,,,,,,,,,,,1.654,1.053,1.275,0.823*27
$GPGSV,3,1,11,2,1,148,,5,26,89,33,10,4,287,,13,47,45,28*77
$GPGSV,3,2,11,15,80,347,30,18,59,302,31,20,32,300,22,23,30,297,35*79
$GPGSV,3,3,11,24,34,166,,29,20,219,25,30,2,33,28*46
$BDGSV,3,1,10,161,38,141,,162,36,224,,163,47,186,,164,25,120,*69
$BDGSV,3,2,10,165,18,247,,166,19,164,,167,16,187,,168,64,12,*5F
$BDGSV,3,3,10,170,29,209,,173,59,313,*67
$GNRMC,021526.400,A,3802.77616821,N,11426.15657506,E,0.000,0.000,261120,,E,A*35